{
"type": "FeatureCollection",
"name": "hospitals",
"crs": { "type": "name", "properties": { "name": "urn:ogc:def:crs:OGC:1.3:CRS84" } },
"features": [
{ "type": "Feature", "properties": { "cat": 1, "OBJECTID": 1, "AREA": 0.0, "PERIMETER": 0.0, "HLS_": 1, "HLS_ID": 1, "NAME": "Cherry Hospital", "ADDRESS": "400 Stevens Mill Rd", "CITY": "Goldsboro", "ZIP": "27533", "COUNTY": "Wayne", "PHONE": "(919) 731-3200", "CANCER": "yes", "POLYGONID": 0, "SCALE": 1.0, "ANGLE": 1.0 }, "geometry": { "type": "Point", "coordinates": [ -78.035305118050729, 35.386947599618942, 0.0 ] } },
{ "type": "Feature", "properties": { "cat": 2, "OBJECTID": 2, "AREA": 0.0, "PERIMETER": 0.0, "HLS_": 2, "HLS_ID": 2, "NAME": "Wayne Memorial Hospital", "ADDRESS": "2700 Wayne Memorial Dr", "CITY": "Goldsboro", "ZIP": "27534", "COUNTY": "Wayne", "PHONE": "(919) 736-1110", "CANCER": "yes", "POLYGONID": 0, "SCALE": 1.0, "ANGLE": 1.0 }, "geometry": { "type": "Point", "coordinates": [ -77.954490464471647, 35.400306905384127, 0.0 ] } },
{ "type": "Feature", "properties": { "cat": 3, "OBJECTID": 3, "AREA": 0.0, "PERIMETER": 0.0, "HLS_": 3, "HLS_ID": 3, "NAME": "Watauga Medical Center", "ADDRESS": "336 Deerfield Rd", "CITY": "Boone", "ZIP": "28607", "COUNTY": "Watauga", "PHONE": "(828) 262-4100", "CANCER": "yes", "POLYGONID": 0, "SCALE": 1.0, "ANGLE": 1.0 }, "geometry": { "type": "Point", "coordinates": [ -81.652245914955444, 36.199264449821278, 0.0 ] } },
{ "type": "Feature", "properties": { "cat": 4, "OBJECTID": 4, "AREA": 0.0, "PERIMETER": 0.0, "HLS_": 4, "HLS_ID": 4, "NAME": "Central Prison Hospital", "ADDRESS": "1300 Western Blvd", "CITY": "Raleigh", "ZIP": "27606", "COUNTY": "Wake", "PHONE": "(919) 733-0800", "CANCER": "yes", "POLYGONID": 0, "SCALE": 1.0, "ANGLE": 1.0 }, "geometry": { "type": "Point", "coordinates": [ -78.657051839930759, 35.774842512612075, 0.0 ] } },
{ "type": "Feature", "properties": { "cat": 5, "OBJECTID": 5, "AREA": 0.0, "PERIMETER": 0.0, "HLS_": 5, "HLS_ID": 5, "NAME": "Dorothea Dix Hospital", "ADDRESS": "820 S Boylan Ave", "CITY": "Raleigh", "ZIP": "27603", "COUNTY": "Wake", "PHONE": "(919) 733-5540", "CANCER": "yes", "POLYGONID": 0, "SCALE": 1.0, "ANGLE": 1.0 }, "geometry": { "type": "Point", "coordinates": [ -78.653251406486163, 35.771554793256726, 0.0 ] } },
{ "type": "Feature", "properties": { "cat": 6, "OBJECTID": 6, "AREA": 0.0, "PERIMETER": 0.0, "HLS_": 6, "HLS_ID": 6, "NAME": "Eastern Wake Hospital", "ADDRESS": "320 Hospital Rd", "CITY": "Zebulon", "ZIP": "27597", "COUNTY": "Wake", "PHONE": "(919) 269-7406", "CANCER": "no", "POLYGONID": 0, "SCALE": 1.0, "ANGLE": 1.0 }, "geometry": { "type": "Point", "coordinates": [ -78.327326294366671, 35.818936192856128, 0.0 ] } },
{ "type": "Feature", "properties": { "cat": 7, "OBJECTID": 7, "AREA": 0.0, "PERIMETER": 0.0, "HLS_": 7, "HLS_ID": 7, "NAME": "Raleigh Community Hospital", "ADDRESS": "3400 Wake Forest Rd", "CITY": "Raleigh", "ZIP": "27609", "COUNTY": "Wake", "PHONE": "(919) 954-3000", "CANCER": "yes", "POLYGONID": 0, "SCALE": 1.0, "ANGLE": 1.0 }, "geometry": { "type": "Point", "coordinates": [ -78.620617998389008, 35.826916107145038, 0.0 ] } },
{ "type": "Feature", "properties": { "cat": 8, "OBJECTID": 8, "AREA": 0.0, "PERIMETER": 0.0, "HLS_": 8, "HLS_ID": 8, "NAME": "Rex Hospital", "ADDRESS": "4420 Lake Boone Trl", "CITY": "Raleigh", "ZIP": "27607", "COUNTY": "Wake", "PHONE": "(919) 783-3100", "CANCER": "yes", "POLYGONID": 0, "SCALE": 1.0, "ANGLE": 1.0 }, "geometry": { "type": "Point", "coordinates": [ -78.70483540464538, 35.815458253103884, 0.0 ] } },
{ "type": "Feature", "properties": { "cat": 9, "OBJECTID": 9, "AREA": 0.0, "PERIMETER": 0.0, "HLS_": 9, "HLS_ID": 9, "NAME": "Southern Wake Hospital", "ADDRESS": "400 W Ransom St", "CITY": "Fuquay-Varina", "ZIP": "27526", "COUNTY": "Wake", "PHONE": "(919) 552-2206", "CANCER": "no", "POLYGONID": 0, "SCALE": 1.0, "ANGLE": 1.0 }, "geometry": { "type": "Point", "coordinates": [ -78.80371654608129, 35.57765301588487, 0.0 ] } },
{ "type": "Feature", "properties": { "cat": 10, "OBJECTID": 10, "AREA": 0.0, "PERIMETER": 0.0, "HLS_": 10, "HLS_ID": 10, "NAME": "WakeMed", "ADDRESS": "3000 New Bern Ave", "CITY": "Raleigh", "ZIP": "28610", "COUNTY": "Wake", "PHONE": "(919) 250-8000", "CANCER": "yes", "POLYGONID": 0, "SCALE": 1.0, "ANGLE": 1.0 }, "geometry": { "type": "Point", "coordinates": [ -78.588237034622153, 35.787160236696373, 0.0 ] } },
{ "type": "Feature", "properties": { "cat": 11, "OBJECTID": 11, "AREA": 0.0, "PERIMETER": 0.0, "HLS_": 11, "HLS_ID": 11, "NAME": "Swain County Hospital", "ADDRESS": "45 Plateau St", "CITY": "Bryson City", "ZIP": "28713", "COUNTY": "Swain", "PHONE": "(828) 488-2155", "CANCER": "yes", "POLYGONID": 0, "SCALE": 1.0, "ANGLE": 1.0 }, "geometry": { "type": "Point", "coordinates": [ -83.446115835189886, 35.434655814627106, 0.0 ] } },
{ "type": "Feature", "properties": { "cat": 12, "OBJECTID": 12, "AREA": 0.0, "PERIMETER": 0.0, "HLS_": 12, "HLS_ID": 12, "NAME": "Hugh Chatham Memorial Hospital", "ADDRESS": "180 Parkwood Dr", "CITY": "Elkin", "ZIP": "28621", "COUNTY": "Surry", "PHONE": "(336) 527-7000", "CANCER": "yes", "POLYGONID": 0, "SCALE": 1.0, "ANGLE": 1.0 }, "geometry": { "type": "Point", "coordinates": [ -80.834557324841256, 36.262034748505663, 0.0 ] } },
{ "type": "Feature", "properties": { "cat": 13, "OBJECTID": 13, "AREA": 0.0, "PERIMETER": 0.0, "HLS_": 13, "HLS_ID": 13, "NAME": "Stanly Memorial Hospital", "ADDRESS": "301 Yadkin St", "CITY": "Albemarle", "ZIP": "28002", "COUNTY": "Stanly", "PHONE": "(704) 984-4000", "CANCER": "yes", "POLYGONID": 0, "SCALE": 1.0, "ANGLE": 1.0 }, "geometry": { "type": "Point", "coordinates": [ -80.194851387488114, 35.362713041174111, 0.0 ] } },
{ "type": "Feature", "properties": { "cat": 14, "OBJECTID": 14, "AREA": 0.0, "PERIMETER": 0.0, "HLS_": 14, "HLS_ID": 14, "NAME": "Laurinburg Cancer Center", "ADDRESS": "503 Lauchwood Dr", "CITY": "Laurinburg", "ZIP": "28352", "COUNTY": "Scotland", "PHONE": "910-277-0125", "CANCER": "yes", "POLYGONID": 0, "SCALE": 1.0, "ANGLE": 1.0 }, "geometry": { "type": "Point", "coordinates": [ -79.472567477156858, 34.75140801696881, 0.0 ] } },
{ "type": "Feature", "properties": { "cat": 15, "OBJECTID": 15, "AREA": 0.0, "PERIMETER": 0.0, "HLS_": 15, "HLS_ID": 15, "NAME": "Scotland Memorial Hospital", "ADDRESS": "500 E Lauchwood Dr", "CITY": "Laurinburg", "ZIP": "28352", "COUNTY": "Scotland", "PHONE": "(910) 291-7000", "CANCER": "yes", "POLYGONID": 0, "SCALE": 1.0, "ANGLE": 1.0 }, "geometry": { "type": "Point", "coordinates": [ -79.472652368433344, 34.751451848428864, 0.0 ] } },
{ "type": "Feature", "properties": { "cat": 16, "OBJECTID": 16, "AREA": 0.0, "PERIMETER": 0.0, "HLS_": 16, "HLS_ID": 16, "NAME": "Sampson Regional Medical Center", "ADDRESS": "607 Beamon St", "CITY": "Clinton", "ZIP": "28329", "COUNTY": "Sampson", "PHONE": "(910) 592-8511", "CANCER": "yes", "POLYGONID": 0, "SCALE": 1.0, "ANGLE": 1.0 }, "geometry": { "type": "Point", "coordinates": [ -78.323355061198782, 35.006803131536287, 0.0 ] } },
{ "type": "Feature", "properties": { "cat": 17, "OBJECTID": 17, "AREA": 0.0, "PERIMETER": 0.0, "HLS_": 17, "HLS_ID": 17, "NAME": "Rowan Regional Medical Center", "ADDRESS": "612 Mocksville Ave", "CITY": "Salisbury", "ZIP": "28144", "COUNTY": "Rowan", "PHONE": "(704) 638-1000", "CANCER": "yes", "POLYGONID": 0, "SCALE": 1.0, "ANGLE": 1.0 }, "geometry": { "type": "Point", "coordinates": [ -80.471170367094658, 35.683121302592035, 0.0 ] } },
{ "type": "Feature", "properties": { "cat": 18, "OBJECTID": 18, "AREA": 0.0, "PERIMETER": 0.0, "HLS_": 18, "HLS_ID": 18, "NAME": "US Veterans Medical Center", "ADDRESS": "1601 Brenner Ave", "CITY": "Salisbury", "ZIP": "28144", "COUNTY": "Rowan", "PHONE": "(704) 638-9000", "CANCER": "yes", "POLYGONID": 0, "SCALE": 1.0, "ANGLE": 1.0 }, "geometry": { "type": "Point", "coordinates": [ -80.486111118026628, 35.683711751832448, 0.0 ] } },
{ "type": "Feature", "properties": { "cat": 19, "OBJECTID": 19, "AREA": 0.0, "PERIMETER": 0.0, "HLS_": 19, "HLS_ID": 19, "NAME": "Morehead Memorial Hospital", "ADDRESS": "117 E Kings Hwy", "CITY": "Eden", "ZIP": "27288", "COUNTY": "Rockingham", "PHONE": "(336) 623-9711", "CANCER": "yes", "POLYGONID": 0, "SCALE": 1.0, "ANGLE": 1.0 }, "geometry": { "type": "Point", "coordinates": [ -79.740196016756613, 36.493359455428298, 0.0 ] } },
{ "type": "Feature", "properties": { "cat": 20, "OBJECTID": 20, "AREA": 0.0, "PERIMETER": 0.0, "HLS_": 20, "HLS_ID": 20, "NAME": "Hamlet Hospital", "ADDRESS": "118 Vance St", "CITY": "Hamlet", "ZIP": "28345", "COUNTY": "Richmond", "PHONE": "(910) 582-3611", "CANCER": "yes", "POLYGONID": 0, "SCALE": 1.0, "ANGLE": 1.0 }, "geometry": { "type": "Point", "coordinates": [ -79.702289538695837, 34.887519422085781, 0.0 ] } },
{ "type": "Feature", "properties": { "cat": 21, "OBJECTID": 21, "AREA": 0.0, "PERIMETER": 0.0, "HLS_": 21, "HLS_ID": 21, "NAME": "FirstHealth Richmond Memorial Hospital", "ADDRESS": "925 S Long Dr", "CITY": "Rockingham", "ZIP": "28379", "COUNTY": "Richmond", "PHONE": "(910) 417-3000", "CANCER": "yes", "POLYGONID": 0, "SCALE": 1.0, "ANGLE": 1.0 }, "geometry": { "type": "Point", "coordinates": [ -79.750368195338766, 34.92939300669066, 0.0 ] } },
{ "type": "Feature", "properties": { "cat": 22, "OBJECTID": 22, "AREA": 0.0, "PERIMETER": 0.0, "HLS_": 22, "HLS_ID": 22, "NAME": "Randolph Hospital", "ADDRESS": "364 White Oak St", "CITY": "Asheboro", "ZIP": "27203", "COUNTY": "Randolph", "PHONE": "(336) 625-5151", "CANCER": "yes", "POLYGONID": 0, "SCALE": 1.0, "ANGLE": 1.0 }, "geometry": { "type": "Point", "coordinates": [ -79.815261974763615, 35.710668726615332, 0.0 ] } },
{ "type": "Feature", "properties": { "cat": 23, "OBJECTID": 23, "AREA": 0.0, "PERIMETER": 0.0, "HLS_": 23, "HLS_ID": 23, "NAME": "Person Memorial Hospital", "ADDRESS": "615 Ridge Rd", "CITY": "Roxboro", "ZIP": "27573", "COUNTY": "Person", "PHONE": "(336) 599-2121", "CANCER": "yes", "POLYGONID": 0, "SCALE": 1.0, "ANGLE": 1.0 }, "geometry": { "type": "Point", "coordinates": [ -78.98312141099909, 36.410330032742287, 0.0 ] } },
{ "type": "Feature", "properties": { "cat": 24, "OBJECTID": 24, "AREA": 0.0, "PERIMETER": 0.0, "HLS_": 24, "HLS_ID": 24, "NAME": "University of NC Hospitals", "ADDRESS": "101 Manning Dr", "CITY": "Chapel Hill", "ZIP": "27514", "COUNTY": "Orange", "PHONE": "(919) 966-4131", "CANCER": "yes", "POLYGONID": 0, "SCALE": 1.0, "ANGLE": 1.0 }, "geometry": { "type": "Point", "coordinates": [ -79.05180738650121, 35.90356975817182, 0.0 ] } },
{ "type": "Feature", "properties": { "cat": 25, "OBJECTID": 25, "AREA": 0.0, "PERIMETER": 0.0, "HLS_": 25, "HLS_ID": 25, "NAME": "Naval Hospital Camp Lejeune", "ADDRESS": "PO Box 10100", "CITY": "Camp Lejeune", "ZIP": "28547", "COUNTY": "Onslow", "PHONE": "(910) 451-4300", "CANCER": "yes", "POLYGONID": 0, "SCALE": 1.0, "ANGLE": 1.0 }, "geometry": { "type": "Point", "coordinates": [ -77.345706403720641, 34.717568513571301, 0.0 ] } },
{ "type": "Feature", "properties": { "cat": 26, "OBJECTID": 26, "AREA": 0.0, "PERIMETER": 0.0, "HLS_": 26, "HLS_ID": 26, "NAME": "Onslow Memorial Hospital", "ADDRESS": "317 Western Blvd", "CITY": "Jacksonville", "ZIP": "28546", "COUNTY": "Onslow", "PHONE": "(910) 577-2345", "CANCER": "yes", "POLYGONID": 0, "SCALE": 1.0, "ANGLE": 1.0 }, "geometry": { "type": "Point", "coordinates": [ -77.379606069320204, 34.747020467856281, 0.0 ] } },
{ "type": "Feature", "properties": { "cat": 27, "OBJECTID": 27, "AREA": 0.0, "PERIMETER": 0.0, "HLS_": 27, "HLS_ID": 27, "NAME": "Coastal Plain Hospital", "ADDRESS": "2301 Medpark Dr", "CITY": "Rocky Mount", "ZIP": "27804", "COUNTY": "Nash", "PHONE": "(252) 443-9500", "CANCER": "no", "POLYGONID": 0, "SCALE": 1.0, "ANGLE": 1.0 }, "geometry": { "type": "Point", "coordinates": [ -77.857625615428944, 35.975451911839642, 0.0 ] } },
{ "type": "Feature", "properties": { "cat": 28, "OBJECTID": 28, "AREA": 0.0, "PERIMETER": 0.0, "HLS_": 28, "HLS_ID": 28, "NAME": "St Joseph of the Pines", "ADDRESS": "590 Central Dr", "CITY": "Southern Pines", "ZIP": "28387", "COUNTY": "Moore", "PHONE": "(910) 692-2212", "CANCER": "yes", "POLYGONID": 0, "SCALE": 1.0, "ANGLE": 1.0 }, "geometry": { "type": "Point", "coordinates": [ -79.387608287631494, 35.204637654662847, 0.0 ] } },
{ "type": "Feature", "properties": { "cat": 29, "OBJECTID": 29, "AREA": 0.0, "PERIMETER": 0.0, "HLS_": 29, "HLS_ID": 29, "NAME": "FirstHealth Montgomery Memorial Hospital", "ADDRESS": "520 Allen St", "CITY": "Troy", "ZIP": "27371", "COUNTY": "Montgomery", "PHONE": "(910) 572-1301", "CANCER": "yes", "POLYGONID": 0, "SCALE": 1.0, "ANGLE": 1.0 }, "geometry": { "type": "Point", "coordinates": [ -79.891442150125826, 35.364316831660943, 0.0 ] } },
{ "type": "Feature", "properties": { "cat": 30, "OBJECTID": 30, "AREA": 0.0, "PERIMETER": 0.0, "HLS_": 30, "HLS_ID": 30, "NAME": "Columbia Medivision-Charlotte", "ADDRESS": "2200 E 7th St", "CITY": "Charlotte", "ZIP": "28204", "COUNTY": "Mecklenburg", "PHONE": "(704) 334-4317", "CANCER": "no", "POLYGONID": 0, "SCALE": 1.0, "ANGLE": 1.0 }, "geometry": { "type": "Point", "coordinates": [ -80.815656864842708, 35.21056696548608, 0.0 ] } },
{ "type": "Feature", "properties": { "cat": 31, "OBJECTID": 31, "AREA": 0.0, "PERIMETER": 0.0, "HLS_": 31, "HLS_ID": 31, "NAME": "Mercy Hospital", "ADDRESS": "2001 Vail Ave", "CITY": "Charlotte", "ZIP": "28207", "COUNTY": "Mecklenburg", "PHONE": "(704) 379-5000", "CANCER": "yes", "POLYGONID": 0, "SCALE": 1.0, "ANGLE": 1.0 }, "geometry": { "type": "Point", "coordinates": [ -80.821785517267116, 35.209704766789372, 0.0 ] } },
{ "type": "Feature", "properties": { "cat": 32, "OBJECTID": 32, "AREA": 0.0, "PERIMETER": 0.0, "HLS_": 32, "HLS_ID": 32, "NAME": "Mercy Hospital South", "ADDRESS": "10628 Park Rd", "CITY": "Charlotte", "ZIP": "28210", "COUNTY": "Mecklenburg", "PHONE": "(704) 543-2000", "CANCER": "yes", "POLYGONID": 0, "SCALE": 1.0, "ANGLE": 1.0 }, "geometry": { "type": "Point", "coordinates": [ -80.869475450828276, 35.091519402927219, 0.0 ] } },
{ "type": "Feature", "properties": { "cat": 33, "OBJECTID": 33, "AREA": 0.0, "PERIMETER": 0.0, "HLS_": 33, "HLS_ID": 33, "NAME": "Presbyterian Hospital", "ADDRESS": "200 Hawthorne Ln", "CITY": "Charlotte", "ZIP": "28204", "COUNTY": "Mecklenburg", "PHONE": "(704) 384-4000", "CANCER": "yes", "POLYGONID": 0, "SCALE": 1.0, "ANGLE": 1.0 }, "geometry": { "type": "Point", "coordinates": [ -80.825561657259314, 35.212899280952762, 0.0 ] } },
{ "type": "Feature", "properties": { "cat": 34, "OBJECTID": 34, "AREA": 0.0, "PERIMETER": 0.0, "HLS_": 34, "HLS_ID": 34, "NAME": "Presbyterian Hospital Matthews", "ADDRESS": "1500 Matthews Township Pkwy", "CITY": "Matthews", "ZIP": "28105", "COUNTY": "Mecklenburg", "PHONE": "(704) 384-6370", "CANCER": "yes", "POLYGONID": 0, "SCALE": 1.0, "ANGLE": 1.0 }, "geometry": { "type": "Point", "coordinates": [ -80.708028279026422, 35.124553427025234, 0.0 ] } },
{ "type": "Feature", "properties": { "cat": 35, "OBJECTID": 35, "AREA": 0.0, "PERIMETER": 0.0, "HLS_": 35, "HLS_ID": 35, "NAME": "Presbyterian Specialty Hospital", "ADDRESS": "1600 E 3rd St", "CITY": "Charlotte", "ZIP": "28207", "COUNTY": "Mecklenburg", "PHONE": "(704) 384-6000", "CANCER": "yes", "POLYGONID": 0, "SCALE": 1.0, "ANGLE": 1.0 }, "geometry": { "type": "Point", "coordinates": [ -80.829024157704367, 35.212095828952229, 0.0 ] } },
{ "type": "Feature", "properties": { "cat": 36, "OBJECTID": 36, "AREA": 0.0, "PERIMETER": 0.0, "HLS_": 36, "HLS_ID": 36, "NAME": "Presbyterian Orthopaedic Hospital", "ADDRESS": "1901 Randolph Rd", "CITY": "Charlotte", "ZIP": "28207", "COUNTY": "Mecklenburg", "PHONE": "(704) 375-6790", "CANCER": "no", "POLYGONID": 0, "SCALE": 1.0, "ANGLE": 1.0 }, "geometry": { "type": "Point", "coordinates": [ -80.824559679046502, 35.210698825705606, 0.0 ] } },
{ "type": "Feature", "properties": { "cat": 37, "OBJECTID": 37, "AREA": 0.0, "PERIMETER": 0.0, "HLS_": 37, "HLS_ID": 37, "NAME": "Johnston Memorial Hospital", "ADDRESS": "509 N Bright Leaf Blvd", "CITY": "Smithfield", "ZIP": "27577", "COUNTY": "Johnston", "PHONE": "(919) 934-8171", "CANCER": "yes", "POLYGONID": 0, "SCALE": 1.0, "ANGLE": 1.0 }, "geometry": { "type": "Point", "coordinates": [ -78.335044463177837, 35.512744986447125, 0.0 ] } },
{ "type": "Feature", "properties": { "cat": 38, "OBJECTID": 38, "AREA": 0.0, "PERIMETER": 0.0, "HLS_": 38, "HLS_ID": 38, "NAME": "Lenoir Memorial Hospital", "ADDRESS": "100 Airport Rd", "CITY": "Kinston", "ZIP": "28501", "COUNTY": "Lenoir", "PHONE": "(252) 522-7797", "CANCER": "yes", "POLYGONID": 0, "SCALE": 1.0, "ANGLE": 1.0 }, "geometry": { "type": "Point", "coordinates": [ -77.580612978400907, 35.290130246976339, 0.0 ] } },
{ "type": "Feature", "properties": { "cat": 39, "OBJECTID": 39, "AREA": 0.0, "PERIMETER": 0.0, "HLS_": 39, "HLS_ID": 39, "NAME": "Central Carolina Hospital", "ADDRESS": "1135 Carthage St # 107", "CITY": "Sanford", "ZIP": "27331", "COUNTY": "Lee", "PHONE": "(919) 774-2100", "CANCER": "yes", "POLYGONID": 0, "SCALE": 1.0, "ANGLE": 1.0 }, "geometry": { "type": "Point", "coordinates": [ -79.188244525046386, 35.472079765845251, 0.0 ] } },
{ "type": "Feature", "properties": { "cat": 40, "OBJECTID": 40, "AREA": 0.0, "PERIMETER": 0.0, "HLS_": 40, "HLS_ID": 40, "NAME": "Iredell Memorial Hospital", "ADDRESS": "557 Brookdale Dr", "CITY": "Statesville", "ZIP": "28687", "COUNTY": "Iredell", "PHONE": "(704) 873-5661", "CANCER": "yes", "POLYGONID": 0, "SCALE": 1.0, "ANGLE": 1.0 }, "geometry": { "type": "Point", "coordinates": [ -80.876982807225133, 35.800073350309631, 0.0 ] } },
{ "type": "Feature", "properties": { "cat": 41, "OBJECTID": 41, "AREA": 0.0, "PERIMETER": 0.0, "HLS_": 41, "HLS_ID": 41, "NAME": "Park Ridge Hospital", "ADDRESS": "Naples Rd", "CITY": "Fletcher", "ZIP": "28732", "COUNTY": "Henderson", "PHONE": "(828) 684-8501", "CANCER": "yes", "POLYGONID": 0, "SCALE": 1.0, "ANGLE": 1.0 }, "geometry": { "type": "Point", "coordinates": [ -82.494465788570281, 35.395735090352112, 0.0 ] } },
{ "type": "Feature", "properties": { "cat": 42, "OBJECTID": 42, "AREA": 0.0, "PERIMETER": 0.0, "HLS_": 42, "HLS_ID": 42, "NAME": "Haywood Regional Medical Center", "ADDRESS": "262 Leroy George Dr", "CITY": "Clyde", "ZIP": "28721", "COUNTY": "Haywood", "PHONE": "(828) 452-8240", "CANCER": "yes", "POLYGONID": 0, "SCALE": 1.0, "ANGLE": 1.0 }, "geometry": { "type": "Point", "coordinates": [ -82.934562668861787, 35.527276128781914, 0.0 ] } },
{ "type": "Feature", "properties": { "cat": 43, "OBJECTID": 43, "AREA": 0.0, "PERIMETER": 0.0, "HLS_": 43, "HLS_ID": 43, "NAME": "Good Hope Hospital", "ADDRESS": "410 Denim Dr", "CITY": "Erwin", "ZIP": "28339", "COUNTY": "Harnett", "PHONE": "(910) 897-6151", "CANCER": "yes", "POLYGONID": 0, "SCALE": 1.0, "ANGLE": 1.0 }, "geometry": { "type": "Point", "coordinates": [ -78.670962330823258, 35.32687102662635, 0.0 ] } },
{ "type": "Feature", "properties": { "cat": 44, "OBJECTID": 44, "AREA": 0.0, "PERIMETER": 0.0, "HLS_": 44, "HLS_ID": 44, "NAME": "Halifax Regional Medical Hospital", "ADDRESS": "250 Smith Church Rd", "CITY": "Roanoke Rapids", "ZIP": "27870", "COUNTY": "Halifax", "PHONE": "(252) 535-8011", "CANCER": "?", "POLYGONID": 0, "SCALE": 1.0, "ANGLE": 1.0 }, "geometry": { "type": "Point", "coordinates": [ -77.655184405459281, 36.431361417094749, 0.0 ] } },
{ "type": "Feature", "properties": { "cat": 45, "OBJECTID": 45, "AREA": 0.0, "PERIMETER": 0.0, "HLS_": 45, "HLS_ID": 45, "NAME": "Columbia Medivision-Greensboro", "ADDRESS": "3312 Battleground Ave", "CITY": "Greensboro", "ZIP": "27410", "COUNTY": "Guilford", "PHONE": "(336) 282-5000", "CANCER": "no", "POLYGONID": 0, "SCALE": 1.0, "ANGLE": 1.0 }, "geometry": { "type": "Point", "coordinates": [ -79.843625499235557, 36.121268920268577, 0.0 ] } },
{ "type": "Feature", "properties": { "cat": 46, "OBJECTID": 46, "AREA": 0.0, "PERIMETER": 0.0, "HLS_": 46, "HLS_ID": 46, "NAME": "High Point Regional Health System", "ADDRESS": "601 N Elm St", "CITY": "High Point", "ZIP": "27262", "COUNTY": "Guilford", "PHONE": "(336) 884-8400", "CANCER": "yes", "POLYGONID": 0, "SCALE": 1.0, "ANGLE": 1.0 }, "geometry": { "type": "Point", "coordinates": [ -80.011626484541026, 35.96150827701782, 0.0 ] } },
{ "type": "Feature", "properties": { "cat": 47, "OBJECTID": 47, "AREA": 0.0, "PERIMETER": 0.0, "HLS_": 47, "HLS_ID": 47, "NAME": "Moses Cone Health System", "ADDRESS": "1200 N Elm St", "CITY": "Greensboro", "ZIP": "27401", "COUNTY": "Guilford", "PHONE": "(336) 832-7000", "CANCER": "yes", "POLYGONID": 0, "SCALE": 1.0, "ANGLE": 1.0 }, "geometry": { "type": "Point", "coordinates": [ -79.788677149530514, 36.089765595476614, 0.0 ] } },
{ "type": "Feature", "properties": { "cat": 48, "OBJECTID": 48, "AREA": 0.0, "PERIMETER": 0.0, "HLS_": 48, "HLS_ID": 48, "NAME": "Vencor Hospital - Greensboro", "ADDRESS": "2401 S Side Blvd", "CITY": "Greensboro", "ZIP": "27406", "COUNTY": "Guilford", "PHONE": "(336) 271-2800", "CANCER": "yes", "POLYGONID": 0, "SCALE": 1.0, "ANGLE": 1.0 }, "geometry": { "type": "Point", "coordinates": [ -79.770857686887936, 36.048404129975289, 0.0 ] } },
{ "type": "Feature", "properties": { "cat": 49, "OBJECTID": 49, "AREA": 0.0, "PERIMETER": 0.0, "HLS_": 49, "HLS_ID": 49, "NAME": "Wesley Long Community Hospital", "ADDRESS": "501 N Elam Ave", "CITY": "Greensboro", "ZIP": "27402", "COUNTY": "Guilford", "PHONE": "(336) 854-6100", "CANCER": "yes", "POLYGONID": 0, "SCALE": 1.0, "ANGLE": 1.0 }, "geometry": { "type": "Point", "coordinates": [ -79.826331119948136, 36.08136189305602, 0.0 ] } },
{ "type": "Feature", "properties": { "cat": 50, "OBJECTID": 50, "AREA": 0.0, "PERIMETER": 0.0, "HLS_": 50, "HLS_ID": 50, "NAME": "Youth Focus Psychiatric Hospital", "ADDRESS": "1601 Huffine Mill Rd", "CITY": "Greensboro", "ZIP": "27405", "COUNTY": "Guilford", "PHONE": "(336) 375-8333", "CANCER": "no", "POLYGONID": 0, "SCALE": 1.0, "ANGLE": 1.0 }, "geometry": { "type": "Point", "coordinates": [ -79.72318003647662, 36.097769722100949, 0.0 ] } },
{ "type": "Feature", "properties": { "cat": 51, "OBJECTID": 51, "AREA": 0.0, "PERIMETER": 0.0, "HLS_": 51, "HLS_ID": 51, "NAME": "Granville Medical Center", "ADDRESS": "1010 College St", "CITY": "Oxford", "ZIP": "27565", "COUNTY": "Granville", "PHONE": "(919) 690-3000", "CANCER": "yes", "POLYGONID": 0, "SCALE": 1.0, "ANGLE": 1.0 }, "geometry": { "type": "Point", "coordinates": [ -78.594069675828266, 36.327273178608777, 0.0 ] } },
{ "type": "Feature", "properties": { "cat": 52, "OBJECTID": 52, "AREA": 0.0, "PERIMETER": 0.0, "HLS_": 52, "HLS_ID": 52, "NAME": "John Umstead Hospital", "ADDRESS": "1003 12th St", "CITY": "Butner", "ZIP": "27509", "COUNTY": "Granville", "PHONE": "(919) 575-7233", "CANCER": "yes", "POLYGONID": 0, "SCALE": 1.0, "ANGLE": 1.0 }, "geometry": { "type": "Point", "coordinates": [ -78.77646274441642, 36.140012587714594, 0.0 ] } },
{ "type": "Feature", "properties": { "cat": 53, "OBJECTID": 53, "AREA": 0.0, "PERIMETER": 0.0, "HLS_": 53, "HLS_ID": 53, "NAME": "Gaston Memorial Hospital", "ADDRESS": "2525 Court Dr", "CITY": "Gastonia", "ZIP": "28054", "COUNTY": "Gaston", "PHONE": "(704) 834-2000", "CANCER": "yes", "POLYGONID": 0, "SCALE": 1.0, "ANGLE": 1.0 }, "geometry": { "type": "Point", "coordinates": [ -81.1424842476425, 35.2748059763071, 0.0 ] } },
{ "type": "Feature", "properties": { "cat": 54, "OBJECTID": 54, "AREA": 0.0, "PERIMETER": 0.0, "HLS_": 54, "HLS_ID": 54, "NAME": "Medical Park Hospital", "ADDRESS": "1950 S Hawthorne Rd", "CITY": "Winston-Salem", "ZIP": "27103", "COUNTY": "Forsyth", "PHONE": "(336) 718-0600", "CANCER": "yes", "POLYGONID": 0, "SCALE": 1.0, "ANGLE": 1.0 }, "geometry": { "type": "Point", "coordinates": [ -80.296812875271641, 36.078225933688785, 0.0 ] } },
{ "type": "Feature", "properties": { "cat": 55, "OBJECTID": 55, "AREA": 0.0, "PERIMETER": 0.0, "HLS_": 55, "HLS_ID": 55, "NAME": "Heritage Hospital", "ADDRESS": "111 Hospital Dr", "CITY": "Tarboro", "ZIP": "27886", "COUNTY": "Edgecombe", "PHONE": "(252) 641-7700", "CANCER": "yes", "POLYGONID": 0, "SCALE": 1.0, "ANGLE": 1.0 }, "geometry": { "type": "Point", "coordinates": [ -77.55622296970482, 35.923010854437976, 0.0 ] } },
{ "type": "Feature", "properties": { "cat": 56, "OBJECTID": 56, "AREA": 0.0, "PERIMETER": 0.0, "HLS_": 56, "HLS_ID": 56, "NAME": "Durham Regional Hospital", "ADDRESS": "3643 N Roxboro Rd", "CITY": "Durham", "ZIP": "27704", "COUNTY": "Durham", "PHONE": "(919) 470-4000", "CANCER": "yes", "POLYGONID": 0, "SCALE": 1.0, "ANGLE": 1.0 }, "geometry": { "type": "Point", "coordinates": [ -78.901548706977948, 36.04499500502456, 0.0 ] } },
{ "type": "Feature", "properties": { "cat": 57, "OBJECTID": 57, "AREA": 0.0, "PERIMETER": 0.0, "HLS_": 57, "HLS_ID": 57, "NAME": "Lenox Baker Children's Hospital", "ADDRESS": "3000 Erwin Rd", "CITY": "Durham", "ZIP": "27710", "COUNTY": "Durham", "PHONE": "(919) 684-6669", "CANCER": "no", "POLYGONID": 0, "SCALE": 1.0, "ANGLE": 1.0 }, "geometry": { "type": "Point", "coordinates": [ -78.951513005882759, 36.002111663327483, 0.0 ] } },
{ "type": "Feature", "properties": { "cat": 58, "OBJECTID": 58, "AREA": 0.0, "PERIMETER": 0.0, "HLS_": 58, "HLS_ID": 58, "NAME": "US Veterans Medical Center", "ADDRESS": "508 Fulton St", "CITY": "Durham", "ZIP": "27705", "COUNTY": "Durham", "PHONE": "(919) 286-0411", "CANCER": "yes", "POLYGONID": 0, "SCALE": 1.0, "ANGLE": 1.0 }, "geometry": { "type": "Point", "coordinates": [ -78.936660217412594, 36.01309161820425, 0.0 ] } },
{ "type": "Feature", "properties": { "cat": 59, "OBJECTID": 59, "AREA": 0.0, "PERIMETER": 0.0, "HLS_": 59, "HLS_ID": 59, "NAME": "Duplin General Hospital", "ADDRESS": "401 N Main St", "CITY": "Kenansville", "ZIP": "28349", "COUNTY": "Duplin", "PHONE": "(910) 296-0941", "CANCER": "yes", "POLYGONID": 0, "SCALE": 1.0, "ANGLE": 1.0 }, "geometry": { "type": "Point", "coordinates": [ -77.960548708115795, 34.964895514092404, 0.0 ] } },
{ "type": "Feature", "properties": { "cat": 60, "OBJECTID": 60, "AREA": 0.0, "PERIMETER": 0.0, "HLS_": 60, "HLS_ID": 60, "NAME": "Davie County Hospital", "ADDRESS": "223 Hospital St", "CITY": "Mocksville", "ZIP": "27028", "COUNTY": "Davie", "PHONE": "(704) 634-8100", "CANCER": "yes", "POLYGONID": 0, "SCALE": 1.0, "ANGLE": 1.0 }, "geometry": { "type": "Point", "coordinates": [ -80.570522185533022, 35.899690865594231, 0.0 ] } },
{ "type": "Feature", "properties": { "cat": 61, "OBJECTID": 61, "AREA": 0.0, "PERIMETER": 0.0, "HLS_": 61, "HLS_ID": 61, "NAME": "Community General Hospital", "ADDRESS": "207 Old Lexington Rd", "CITY": "Thomasville", "ZIP": "27360", "COUNTY": "Davidson", "PHONE": "(336) 472-2000", "CANCER": "yes", "POLYGONID": 0, "SCALE": 1.0, "ANGLE": 1.0 }, "geometry": { "type": "Point", "coordinates": [ -80.109854749962764, 35.88154535303002, 0.0 ] } },
{ "type": "Feature", "properties": { "cat": 62, "OBJECTID": 62, "AREA": 0.0, "PERIMETER": 0.0, "HLS_": 62, "HLS_ID": 62, "NAME": "Highsmith-Rainey Hospital", "ADDRESS": "150 Robeson St", "CITY": "Fayetteville", "ZIP": "28301", "COUNTY": "Cumberland", "PHONE": "(910) 609-1000", "CANCER": "yes", "POLYGONID": 0, "SCALE": 1.0, "ANGLE": 1.0 }, "geometry": { "type": "Point", "coordinates": [ -78.887575172683299, 35.054244402948555, 0.0 ] } },
{ "type": "Feature", "properties": { "cat": 63, "OBJECTID": 63, "AREA": 0.0, "PERIMETER": 0.0, "HLS_": 63, "HLS_ID": 63, "NAME": "Cumberland Hospital", "ADDRESS": "3425 Melrose Rd", "CITY": "Fayetteville", "ZIP": "28304", "COUNTY": "Cumberland", "PHONE": "(910) 609-3000", "CANCER": "no", "POLYGONID": 0, "SCALE": 1.0, "ANGLE": 1.0 }, "geometry": { "type": "Point", "coordinates": [ -78.936185989229699, 35.033273862743727, 0.0 ] } },
{ "type": "Feature", "properties": { "cat": 64, "OBJECTID": 64, "AREA": 0.0, "PERIMETER": 0.0, "HLS_": 64, "HLS_ID": 64, "NAME": "US Veterans Medical Center", "ADDRESS": "2300 Ramsey St", "CITY": "Fayetteville", "ZIP": "28301", "COUNTY": "Cumberland", "PHONE": "(910) 488-2120", "CANCER": "yes", "POLYGONID": 0, "SCALE": 1.0, "ANGLE": 1.0 }, "geometry": { "type": "Point", "coordinates": [ -78.878514939128294, 35.089300544748859, 0.0 ] } },
{ "type": "Feature", "properties": { "cat": 65, "OBJECTID": 65, "AREA": 0.0, "PERIMETER": 0.0, "HLS_": 65, "HLS_ID": 65, "NAME": "Vanceboro Medical Center", "ADDRESS": "620 Farm Life Ave", "CITY": "Vanceboro", "ZIP": "28586", "COUNTY": "Craven", "PHONE": "(252) 244-1785", "CANCER": "yes", "POLYGONID": 0, "SCALE": 1.0, "ANGLE": 1.0 }, "geometry": { "type": "Point", "coordinates": [ -77.148737569452067, 35.303258157596716, 0.0 ] } },
{ "type": "Feature", "properties": { "cat": 66, "OBJECTID": 66, "AREA": 0.0, "PERIMETER": 0.0, "HLS_": 66, "HLS_ID": 66, "NAME": "Columbus County Hospital", "ADDRESS": "500 Jefferson St", "CITY": "Whiteville", "ZIP": "28472", "COUNTY": "Columbus", "PHONE": "(910) 642-8011", "CANCER": "yes", "POLYGONID": 0, "SCALE": 1.0, "ANGLE": 1.0 }, "geometry": { "type": "Point", "coordinates": [ -78.692796636087493, 34.338805957886578, 0.0 ] } },
{ "type": "Feature", "properties": { "cat": 67, "OBJECTID": 67, "AREA": 0.0, "PERIMETER": 0.0, "HLS_": 67, "HLS_ID": 67, "NAME": "Cleveland Regional Medical Center", "ADDRESS": "201 E Grover St", "CITY": "Shelby", "ZIP": "28150", "COUNTY": "Cleveland", "PHONE": "(704) 487-3000", "CANCER": "yes", "POLYGONID": 0, "SCALE": 1.0, "ANGLE": 1.0 }, "geometry": { "type": "Point", "coordinates": [ -81.537606820356089, 35.301483522128635, 0.0 ] } },
{ "type": "Feature", "properties": { "cat": 68, "OBJECTID": 68, "AREA": 0.0, "PERIMETER": 0.0, "HLS_": 68, "HLS_ID": 68, "NAME": "Crawley Memorial Hospital", "ADDRESS": "315 W College Ave", "CITY": "Boiling Springs", "ZIP": "28017", "COUNTY": "Cleveland", "PHONE": "(704) 434-9466", "CANCER": "no", "POLYGONID": 0, "SCALE": 1.0, "ANGLE": 1.0 }, "geometry": { "type": "Point", "coordinates": [ -81.679085057988217, 35.251887239949362, 0.0 ] } },
{ "type": "Feature", "properties": { "cat": 69, "OBJECTID": 69, "AREA": 0.0, "PERIMETER": 0.0, "HLS_": 69, "HLS_ID": 69, "NAME": "Kings Mountain Hospital", "ADDRESS": "706 W King St", "CITY": "Kings Mountain", "ZIP": "28086", "COUNTY": "Cleveland", "PHONE": "(704) 739-3601", "CANCER": "yes", "POLYGONID": 0, "SCALE": 1.0, "ANGLE": 1.0 }, "geometry": { "type": "Point", "coordinates": [ -81.357793874867568, 35.240502555872204, 0.0 ] } },
{ "type": "Feature", "properties": { "cat": 70, "OBJECTID": 70, "AREA": 0.0, "PERIMETER": 0.0, "HLS_": 70, "HLS_ID": 70, "NAME": "Chatham Hospital", "ADDRESS": "W 3rd & Ivey Ave", "CITY": "Siler City", "ZIP": "27344", "COUNTY": "Chatham", "PHONE": "(919) 663-2113", "CANCER": "yes", "POLYGONID": 0, "SCALE": 1.0, "ANGLE": 1.0 }, "geometry": { "type": "Point", "coordinates": [ -79.474203917099715, 35.720932986128062, 0.0 ] } },
{ "type": "Feature", "properties": { "cat": 71, "OBJECTID": 71, "AREA": 0.0, "PERIMETER": 0.0, "HLS_": 71, "HLS_ID": 71, "NAME": "Catawba Memorial Hospital", "ADDRESS": "810 Fairgrove Church Rd", "CITY": "Hickory", "ZIP": "28602", "COUNTY": "Catawba", "PHONE": "(828) 326-3858", "CANCER": "yes", "POLYGONID": 0, "SCALE": 1.0, "ANGLE": 1.0 }, "geometry": { "type": "Point", "coordinates": [ -81.265194132126283, 35.716713365655302, 0.0 ] } },
{ "type": "Feature", "properties": { "cat": 72, "OBJECTID": 72, "AREA": 0.0, "PERIMETER": 0.0, "HLS_": 72, "HLS_ID": 72, "NAME": "Frye Regional Medical Center", "ADDRESS": "420 N Center St", "CITY": "Hickory", "ZIP": "28601", "COUNTY": "Catawba", "PHONE": "(828) 322-6070", "CANCER": "yes", "POLYGONID": 0, "SCALE": 1.0, "ANGLE": 1.0 }, "geometry": { "type": "Point", "coordinates": [ -81.338063431300782, 35.737356795245127, 0.0 ] } },
{ "type": "Feature", "properties": { "cat": 73, "OBJECTID": 73, "AREA": 0.0, "PERIMETER": 0.0, "HLS_": 73, "HLS_ID": 73, "NAME": "Carteret General Hospital", "ADDRESS": "3500 Arendell St", "CITY": "Morehead City", "ZIP": "28557", "COUNTY": "Carteret", "PHONE": "(252) 247-1616", "CANCER": "yes", "POLYGONID": 0, "SCALE": 1.0, "ANGLE": 1.0 }, "geometry": { "type": "Point", "coordinates": [ -76.753927263403526, 34.724284541973468, 0.0 ] } },
{ "type": "Feature", "properties": { "cat": 74, "OBJECTID": 74, "AREA": 0.0, "PERIMETER": 0.0, "HLS_": 74, "HLS_ID": 74, "NAME": "Caldwell Memorial Hospital", "ADDRESS": "321 Mulberry St Sw", "CITY": "Lenoir", "ZIP": "28645", "COUNTY": "Caldwell", "PHONE": "(828) 757-5100", "CANCER": "yes", "POLYGONID": 0, "SCALE": 1.0, "ANGLE": 1.0 }, "geometry": { "type": "Point", "coordinates": [ -81.536680165306379, 35.911276020629096, 0.0 ] } },
{ "type": "Feature", "properties": { "cat": 75, "OBJECTID": 75, "AREA": 0.0, "PERIMETER": 0.0, "HLS_": 75, "HLS_ID": 75, "NAME": "NorthEast Medical Center", "ADDRESS": "920 Church St N", "CITY": "Concord", "ZIP": "28025", "COUNTY": "Cabarrus", "PHONE": "(704) 783-3000", "CANCER": "yes", "POLYGONID": 0, "SCALE": 1.0, "ANGLE": 1.0 }, "geometry": { "type": "Point", "coordinates": [ -80.603070705072639, 35.434310296269949, 0.0 ] } },
{ "type": "Feature", "properties": { "cat": 76, "OBJECTID": 76, "AREA": 0.0, "PERIMETER": 0.0, "HLS_": 76, "HLS_ID": 76, "NAME": "Broughton Hospital", "ADDRESS": "1000 S Sterling St", "CITY": "Morganton", "ZIP": "28655", "COUNTY": "Burke", "PHONE": "(828) 433-2111", "CANCER": "yes", "POLYGONID": 0, "SCALE": 1.0, "ANGLE": 1.0 }, "geometry": { "type": "Point", "coordinates": [ -81.669349367655784, 35.730210338391068, 0.0 ] } },
{ "type": "Feature", "properties": { "cat": 77, "OBJECTID": 77, "AREA": 0.0, "PERIMETER": 0.0, "HLS_": 77, "HLS_ID": 77, "NAME": "Grace Hospital", "ADDRESS": "2201 S Sterling St", "CITY": "Morganton", "ZIP": "28655", "COUNTY": "Burke", "PHONE": "(828) 438-2000", "CANCER": "yes", "POLYGONID": 0, "SCALE": 1.0, "ANGLE": 1.0 }, "geometry": { "type": "Point", "coordinates": [ -81.643191483170014, 35.71277603625051, 0.0 ] } },
{ "type": "Feature", "properties": { "cat": 78, "OBJECTID": 78, "AREA": 0.0, "PERIMETER": 0.0, "HLS_": 78, "HLS_ID": 78, "NAME": "Valdese General Hospital", "ADDRESS": "720 Malcolm Blvd", "CITY": "Valdese", "ZIP": "28690", "COUNTY": "Burke", "PHONE": "(828) 874-2251", "CANCER": "yes", "POLYGONID": 0, "SCALE": 1.0, "ANGLE": 1.0 }, "geometry": { "type": "Point", "coordinates": [ -81.526177447894497, 35.752591966825669, 0.0 ] } },
{ "type": "Feature", "properties": { "cat": 79, "OBJECTID": 79, "AREA": 0.0, "PERIMETER": 0.0, "HLS_": 79, "HLS_ID": 79, "NAME": "Mission St. Joseph's Hospital", "ADDRESS": "509 Biltmore Ave", "CITY": "Asheville", "ZIP": "28801", "COUNTY": "Buncombe", "PHONE": "(828) 213-111", "CANCER": "yes", "POLYGONID": 0, "SCALE": 1.0, "ANGLE": 1.0 }, "geometry": { "type": "Point", "coordinates": [ -82.550177717663743, 35.579714092187857, 0.0 ] } },
{ "type": "Feature", "properties": { "cat": 80, "OBJECTID": 80, "AREA": 0.0, "PERIMETER": 0.0, "HLS_": 80, "HLS_ID": 80, "NAME": "St Joseph's Hospital", "ADDRESS": "428 Biltmore Ave", "CITY": "Asheville", "ZIP": "28801", "COUNTY": "Buncombe", "PHONE": "(828) 255-3100", "CANCER": "no", "POLYGONID": 0, "SCALE": 1.0, "ANGLE": 1.0 }, "geometry": { "type": "Point", "coordinates": [ -82.551057406537225, 35.582184301012703, 0.0 ] } },
{ "type": "Feature", "properties": { "cat": 81, "OBJECTID": 81, "AREA": 0.0, "PERIMETER": 0.0, "HLS_": 81, "HLS_ID": 81, "NAME": "US Veterans Medical Center", "ADDRESS": "1100 Tunnel Rd", "CITY": "Asheville", "ZIP": "28805", "COUNTY": "Buncombe", "PHONE": "(828) 298-7911", "CANCER": "yes", "POLYGONID": 0, "SCALE": 1.0, "ANGLE": 1.0 }, "geometry": { "type": "Point", "coordinates": [ -82.494347368617696, 35.588300223034132, 0.0 ] } },
{ "type": "Feature", "properties": { "cat": 82, "OBJECTID": 82, "AREA": 0.0, "PERIMETER": 0.0, "HLS_": 82, "HLS_ID": 82, "NAME": "J. Arthur Dosher Memorial Hospital", "ADDRESS": "924 N Howe St", "CITY": "Southport", "ZIP": "28461", "COUNTY": "Brunswick", "PHONE": "(910) 457-5271", "CANCER": "yes", "POLYGONID": 0, "SCALE": 1.0, "ANGLE": 1.0 }, "geometry": { "type": "Point", "coordinates": [ -78.022133156686166, 33.928388359756553, 0.0 ] } },
{ "type": "Feature", "properties": { "cat": 83, "OBJECTID": 83, "AREA": 0.0, "PERIMETER": 0.0, "HLS_": 83, "HLS_ID": 83, "NAME": "Beaufort County Hospital", "ADDRESS": "628 E 12th St", "CITY": "Washington", "ZIP": "27889", "COUNTY": "Beaufort", "PHONE": "(252) 975-4100", "CANCER": "yes", "POLYGONID": 0, "SCALE": 1.0, "ANGLE": 1.0 }, "geometry": { "type": "Point", "coordinates": [ -77.04005106928841, 35.549265471028299, 0.0 ] } },
{ "type": "Feature", "properties": { "cat": 84, "OBJECTID": 84, "AREA": 0.0, "PERIMETER": 0.0, "HLS_": 84, "HLS_ID": 84, "NAME": "Pungo District Hospital", "ADDRESS": "202 E Water St", "CITY": "Belhaven", "ZIP": "27810", "COUNTY": "Beaufort", "PHONE": "(252) 943-2111", "CANCER": "yes", "POLYGONID": 0, "SCALE": 1.0, "ANGLE": 1.0 }, "geometry": { "type": "Point", "coordinates": [ -76.620524006138552, 35.536000980629296, 0.0 ] } },
{ "type": "Feature", "properties": { "cat": 85, "OBJECTID": 85, "AREA": 0.0, "PERIMETER": 0.0, "HLS_": 85, "HLS_ID": 85, "NAME": "Alamance Regional Medical Center", "ADDRESS": "1240 Huffman Mill Rd", "CITY": "Burlington", "ZIP": "27216", "COUNTY": "Alamance", "PHONE": "(336) 538-7000", "CANCER": "yes", "POLYGONID": 0, "SCALE": 1.0, "ANGLE": 1.0 }, "geometry": { "type": "Point", "coordinates": [ -79.500868694982088, 36.065151827658852, 0.0 ] } },
{ "type": "Feature", "properties": { "cat": 86, "OBJECTID": 86, "AREA": 0.0, "PERIMETER": 0.0, "HLS_": 86, "HLS_ID": 86, "NAME": "Bertie Memorial Hospital", "ADDRESS": "401 Sterlingworth St", "CITY": "Windsor", "ZIP": "27983", "COUNTY": "Bertie", "PHONE": "(252) 794-3141", "CANCER": "yes", "POLYGONID": 0, "SCALE": 1.0, "ANGLE": 1.0 }, "geometry": { "type": "Point", "coordinates": [ -76.953792971238201, 35.999150196625997, 0.0 ] } },
{ "type": "Feature", "properties": { "cat": 87, "OBJECTID": 87, "AREA": 0.0, "PERIMETER": 0.0, "HLS_": 87, "HLS_ID": 87, "NAME": "District Memorial Hospital", "ADDRESS": "71 Whitaker Ln", "CITY": "Andrews", "ZIP": "28901", "COUNTY": "Cherokee", "PHONE": "(828) 321-1200", "CANCER": "yes", "POLYGONID": 0, "SCALE": 1.0, "ANGLE": 1.0 }, "geometry": { "type": "Point", "coordinates": [ -83.836118586628686, 35.200072749755499, 0.0 ] } },
{ "type": "Feature", "properties": { "cat": 88, "OBJECTID": 88, "AREA": 0.0, "PERIMETER": 0.0, "HLS_": 88, "HLS_ID": 88, "NAME": "Outer Banks Medical Center", "ADDRESS": "425 W Health Center Dr", "CITY": "Nags Head", "ZIP": "27959", "COUNTY": "Dare", "PHONE": "(252) 261-4311", "CANCER": "no", "POLYGONID": 0, "SCALE": 1.0, "ANGLE": 1.0 }, "geometry": { "type": "Point", "coordinates": [ -75.647168103592747, 35.9782084058496, 0.0 ] } },
{ "type": "Feature", "properties": { "cat": 89, "OBJECTID": 89, "AREA": 0.0, "PERIMETER": 0.0, "HLS_": 89, "HLS_ID": 89, "NAME": "Franklin Regional Medical Center", "ADDRESS": "100 Hospital Dr", "CITY": "Louisburg", "ZIP": "27549", "COUNTY": "Franklin", "PHONE": "(919) 496-5131", "CANCER": "yes", "POLYGONID": 0, "SCALE": 1.0, "ANGLE": 1.0 }, "geometry": { "type": "Point", "coordinates": [ -78.296172424171388, 36.11242929762119, 0.0 ] } },
{ "type": "Feature", "properties": { "cat": 90, "OBJECTID": 90, "AREA": 0.0, "PERIMETER": 0.0, "HLS_": 90, "HLS_ID": 90, "NAME": "Harris Regional Hospital", "ADDRESS": "68 Hospital Rd", "CITY": "Sylva", "ZIP": "28779", "COUNTY": "Jackson", "PHONE": "(828) 586-7000", "CANCER": "yes", "POLYGONID": 0, "SCALE": 1.0, "ANGLE": 1.0 }, "geometry": { "type": "Point", "coordinates": [ -83.205630972964201, 35.389254395312655, 0.0 ] } },
{ "type": "Feature", "properties": { "cat": 91, "OBJECTID": 91, "AREA": 0.0, "PERIMETER": 0.0, "HLS_": 91, "HLS_ID": 91, "NAME": "Highlands-Cashiers Hospital", "ADDRESS": "68 Hospital Dr", "CITY": "Highlands", "ZIP": "28741", "COUNTY": "Macon", "PHONE": "(828) 526-1200", "CANCER": "yes", "POLYGONID": 0, "SCALE": 1.0, "ANGLE": 1.0 }, "geometry": { "type": "Point", "coordinates": [ -83.195673340366284, 35.048919568694679, 0.0 ] } },
{ "type": "Feature", "properties": { "cat": 92, "OBJECTID": 92, "AREA": 0.0, "PERIMETER": 0.0, "HLS_": 92, "HLS_ID": 92, "NAME": "Martin General Hospital", "ADDRESS": "310 S McCaskey Rd", "CITY": "Williamston", "ZIP": "27892", "COUNTY": "Martin", "PHONE": "(252) 809-6179", "CANCER": "yes", "POLYGONID": 0, "SCALE": 1.0, "ANGLE": 1.0 }, "geometry": { "type": "Point", "coordinates": [ -77.069095938287163, 35.840043010779972, 0.0 ] } },
{ "type": "Feature", "properties": { "cat": 93, "OBJECTID": 93, "AREA": 0.0, "PERIMETER": 0.0, "HLS_": 93, "HLS_ID": 93, "NAME": "Spruce Pine Community Hospital", "ADDRESS": "125 Hospital Dr", "CITY": "Spruce Pine", "ZIP": "28777", "COUNTY": "Mitchell", "PHONE": "(828) 765-4201", "CANCER": "yes", "POLYGONID": 0, "SCALE": 1.0, "ANGLE": 1.0 }, "geometry": { "type": "Point", "coordinates": [ -82.064263953646034, 35.910998166522859, 0.0 ] } },
{ "type": "Feature", "properties": { "cat": 94, "OBJECTID": 94, "AREA": 0.0, "PERIMETER": 0.0, "HLS_": 94, "HLS_ID": 94, "NAME": "Pender Memorial Hospital", "ADDRESS": "507 E Freemont St", "CITY": "Burgaw", "ZIP": "28425", "COUNTY": "Pender", "PHONE": "(910) 259-5451", "CANCER": "yes", "POLYGONID": 0, "SCALE": 1.0, "ANGLE": 1.0 }, "geometry": { "type": "Point", "coordinates": [ -77.922757929393498, 34.550585297339438, 0.0 ] } },
{ "type": "Feature", "properties": { "cat": 95, "OBJECTID": 95, "AREA": 0.0, "PERIMETER": 0.0, "HLS_": 95, "HLS_ID": 95, "NAME": "Rutherford Hospital", "ADDRESS": "288 S Ridgecrest Ave", "CITY": "Rutherfordton", "ZIP": "28139", "COUNTY": "Rutherford", "PHONE": "(828) 286-5000", "CANCER": "yes", "POLYGONID": 0, "SCALE": 1.0, "ANGLE": 1.0 }, "geometry": { "type": "Point", "coordinates": [ -81.965326151261181, 35.366135734558881, 0.0 ] } },
{ "type": "Feature", "properties": { "cat": 96, "OBJECTID": 96, "AREA": 0.0, "PERIMETER": 0.0, "HLS_": 96, "HLS_ID": 96, "NAME": "Transylvania Community Hospital", "ADDRESS": "Hospital Dr", "CITY": "Brevard", "ZIP": "28712", "COUNTY": "Transylvania", "PHONE": "(828) 884-9111", "CANCER": "yes", "POLYGONID": 0, "SCALE": 1.0, "ANGLE": 1.0 }, "geometry": { "type": "Point", "coordinates": [ -82.713275080230019, 35.255795523349377, 0.0 ] } },
{ "type": "Feature", "properties": { "cat": 97, "OBJECTID": 97, "AREA": 0.0, "PERIMETER": 0.0, "HLS_": 97, "HLS_ID": 97, "NAME": "Hoots Memorial Hospital", "ADDRESS": "624 W Main St", "CITY": "Yadkinville", "ZIP": "27055", "COUNTY": "Yadkin", "PHONE": "(336) 679-2041", "CANCER": "no", "POLYGONID": 0, "SCALE": 1.0, "ANGLE": 1.0 }, "geometry": { "type": "Point", "coordinates": [ -80.670431555917872, 36.134398028360266, 0.0 ] } },
{ "type": "Feature", "properties": { "cat": 98, "OBJECTID": 98, "AREA": 0.0, "PERIMETER": 0.0, "HLS_": 98, "HLS_ID": 98, "NAME": "Cherokee Indian Hospital", "ADDRESS": "Hospital Rd", "CITY": "Cherokee", "ZIP": "28719", "COUNTY": "Swain", "PHONE": "(828) 497-9163", "CANCER": "yes", "POLYGONID": 0, "SCALE": 1.0, "ANGLE": 0.0 }, "geometry": { "type": "Point", "coordinates": [ -83.327759521436661, 35.482195499435221, 0.0 ] } },
{ "type": "Feature", "properties": { "cat": 99, "OBJECTID": 99, "AREA": 0.0, "PERIMETER": 0.0, "HLS_": 99, "HLS_ID": 99, "NAME": "Forsyth Memorial Hospital", "ADDRESS": "3333 Silas Creek Pkwy", "CITY": "Winston-Salem", "ZIP": "27103", "COUNTY": "Forsyth", "PHONE": "(336) 718-5000", "CANCER": "yes", "POLYGONID": 0, "SCALE": 1.0, "ANGLE": 0.0 }, "geometry": { "type": "Point", "coordinates": [ -80.299876610995227, 36.076330770379748, 0.0 ] } },
{ "type": "Feature", "properties": { "cat": 100, "OBJECTID": 100, "AREA": 0.0, "PERIMETER": 0.0, "HLS_": 100, "HLS_ID": 100, "NAME": "McCain Correction Dept. Hospital", "ADDRESS": "Old McCain Rd Highway 211", "CITY": "McCain", "ZIP": "28361", "COUNTY": "Hoke", "PHONE": "(910) 944-2351", "CANCER": "no", "POLYGONID": 0, "SCALE": 1.0, "ANGLE": 0.0 }, "geometry": { "type": "Point", "coordinates": [ -79.242240830768395, 35.027935469633412, 0.0 ] } },
{ "type": "Feature", "properties": { "cat": 101, "OBJECTID": 101, "AREA": 0.0, "PERIMETER": 0.0, "HLS_": 101, "HLS_ID": 101, "NAME": "Naval Hospital Cherry Point", "ADDRESS": "PSC Box 8023 Bldg 4389", "CITY": "Cherry Point", "ZIP": "28533", "COUNTY": "Craven", "PHONE": "(252) 466-0266", "CANCER": "yes", "POLYGONID": 0, "SCALE": 1.0, "ANGLE": 0.0 }, "geometry": { "type": "Point", "coordinates": [ -76.901292830869252, 34.923033243100875, 0.0 ] } },
{ "type": "Feature", "properties": { "cat": 102, "OBJECTID": 102, "AREA": 0.0, "PERIMETER": 0.0, "HLS_": 102, "HLS_ID": 102, "NAME": "Wake Forest University Baptist Medical Center", "ADDRESS": "Medical Center Blvd", "CITY": "Winston-Salem", "ZIP": "27157", "COUNTY": "Forsyth", "PHONE": "(336) 716-2011", "CANCER": "yes", "POLYGONID": 0, "SCALE": 1.0, "ANGLE": 0.0 }, "geometry": { "type": "Point", "coordinates": [ -80.270449250834176, 36.089515756587254, 0.0 ] } },
{ "type": "Feature", "properties": { "cat": 103, "OBJECTID": 103, "AREA": 0.0, "PERIMETER": 0.0, "HLS_": 103, "HLS_ID": 103, "NAME": "US Air Force Hospital", "ADDRESS": "1050 Jabara Ave or 1050 Curtiss Ave", "CITY": "Goldsboro", "ZIP": "27531", "COUNTY": "Wayne", "PHONE": "(919) 736-5176", "CANCER": "yes", "POLYGONID": 0, "SCALE": 1.0, "ANGLE": 0.0 }, "geometry": { "type": "Point", "coordinates": [ -77.966702060946318, 35.344128085627091, 0.0 ] } },
{ "type": "Feature", "properties": { "cat": 104, "OBJECTID": 104, "AREA": 0.0, "PERIMETER": 0.0, "HLS_": 104, "HLS_ID": 104, "NAME": "Albemarle Hospital", "ADDRESS": "1144 N Road St", "CITY": "Elizabeth City", "ZIP": "27909", "COUNTY": "Pasquotank", "PHONE": "(252) 384-4600", "CANCER": "yes", "POLYGONID": 0, "SCALE": 1.0, "ANGLE": 1.0 }, "geometry": { "type": "Point", "coordinates": [ -76.218198674266645, 36.318954758731493, 0.0 ] } },
{ "type": "Feature", "properties": { "cat": 105, "OBJECTID": 105, "AREA": 0.0, "PERIMETER": 0.0, "HLS_": 105, "HLS_ID": 105, "NAME": "Alexander Community Hospital", "ADDRESS": "326 3rd St SW", "CITY": "Taylorsville", "ZIP": "28681", "COUNTY": "Alexander", "PHONE": "(828) 635-4000", "CANCER": "yes", "POLYGONID": 0, "SCALE": 1.0, "ANGLE": 1.0 }, "geometry": { "type": "Point", "coordinates": [ -81.178195791727475, 35.919863455465041, 0.0 ] } },
{ "type": "Feature", "properties": { "cat": 106, "OBJECTID": 106, "AREA": 0.0, "PERIMETER": 0.0, "HLS_": 106, "HLS_ID": 106, "NAME": "Angel Medical Center", "ADDRESS": "120 Riverview St", "CITY": "Franklin", "ZIP": "28734", "COUNTY": "Macon", "PHONE": "(828) 524-8411", "CANCER": "yes", "POLYGONID": 0, "SCALE": 1.0, "ANGLE": 1.0 }, "geometry": { "type": "Point", "coordinates": [ -83.377356154746892, 35.184109527361215, 0.0 ] } },
{ "type": "Feature", "properties": { "cat": 107, "OBJECTID": 107, "AREA": 0.0, "PERIMETER": 0.0, "HLS_": 107, "HLS_ID": 107, "NAME": "Annie Penn Hospital", "ADDRESS": "618 S Main St", "CITY": "Reidsville", "ZIP": "27320", "COUNTY": "Rockingham", "PHONE": "(336) 634-1010", "CANCER": "yes", "POLYGONID": 0, "SCALE": 1.0, "ANGLE": 1.0 }, "geometry": { "type": "Point", "coordinates": [ -79.666283523960757, 36.354808480762102, 0.0 ] } },
{ "type": "Feature", "properties": { "cat": 108, "OBJECTID": 108, "AREA": 0.0, "PERIMETER": 0.0, "HLS_": 108, "HLS_ID": 108, "NAME": "Ashe Memorial Hospital", "ADDRESS": "200 Hospital Avenue", "CITY": "Jefferson", "ZIP": "28640", "COUNTY": "Ashe", "PHONE": "(336) 246-7101", "CANCER": "?", "POLYGONID": 0, "SCALE": 1.0, "ANGLE": 0.0 }, "geometry": { "type": "Point", "coordinates": [ -81.46045131050748, 36.423665659134095, 0.0 ] } },
{ "type": "Feature", "properties": { "cat": 109, "OBJECTID": 109, "AREA": 0.0, "PERIMETER": 0.0, "HLS_": 109, "HLS_ID": 109, "NAME": "Bladen County Hospital", "ADDRESS": "501 Poplar St S", "CITY": "Elizabethtown", "ZIP": "28337", "COUNTY": "Bladen", "PHONE": "(910) 862-5100", "CANCER": "yes", "POLYGONID": 0, "SCALE": 1.0, "ANGLE": 1.0 }, "geometry": { "type": "Point", "coordinates": [ -78.605919459879644, 34.628060763749332, 0.0 ] } },
{ "type": "Feature", "properties": { "cat": 110, "OBJECTID": 110, "AREA": 0.0, "PERIMETER": 0.0, "HLS_": 110, "HLS_ID": 110, "NAME": "Brunswick Community Hospital", "ADDRESS": "1 Medical Center Dr", "CITY": "Supply", "ZIP": "28462", "COUNTY": "Brunswick", "PHONE": "(910) 755-8121", "CANCER": "yes", "POLYGONID": 0, "SCALE": 1.0, "ANGLE": 1.0 }, "geometry": { "type": "Point", "coordinates": [ -78.29107387616051, 34.009909001005418, 0.0 ] } },
{ "type": "Feature", "properties": { "cat": 111, "OBJECTID": 111, "AREA": 0.0, "PERIMETER": 0.0, "HLS_": 111, "HLS_ID": 111, "NAME": "Cape Fear Valley Medical Center", "ADDRESS": "1638 Owen Dr", "CITY": "Fayetteville", "ZIP": "28403", "COUNTY": "Cumberland", "PHONE": "(910) 609-4000", "CANCER": "yes", "POLYGONID": 0, "SCALE": 1.0, "ANGLE": 0.0 }, "geometry": { "type": "Point", "coordinates": [ -78.931403070682165, 35.033515334696276, 0.0 ] } },
{ "type": "Feature", "properties": { "cat": 112, "OBJECTID": 112, "AREA": 0.0, "PERIMETER": 0.0, "HLS_": 112, "HLS_ID": 112, "NAME": "Carolinas Medical Center", "ADDRESS": "1000 Blythe Blvd # 506", "CITY": "Charlotte", "ZIP": "28203", "COUNTY": "Mecklenburg", "PHONE": "(704) 355-2000", "CANCER": "yes", "POLYGONID": 0, "SCALE": 1.0, "ANGLE": 1.0 }, "geometry": { "type": "Point", "coordinates": [ -80.838620576909648, 35.204435864992064, 0.0 ] } },
{ "type": "Feature", "properties": { "cat": 113, "OBJECTID": 113, "AREA": 0.0, "PERIMETER": 0.0, "HLS_": 113, "HLS_ID": 113, "NAME": "Carolinas Medical Center", "ADDRESS": "501 Billingsley Rd", "CITY": "Charlotte", "ZIP": "28203", "COUNTY": "Mecklenburg", "PHONE": "(704) 358-2744", "CANCER": "yes", "POLYGONID": 0, "SCALE": 1.0, "ANGLE": 1.0 }, "geometry": { "type": "Point", "coordinates": [ -80.80364655277873, 35.190650905669827, 0.0 ] } },
{ "type": "Feature", "properties": { "cat": 114, "OBJECTID": 114, "AREA": 0.0, "PERIMETER": 0.0, "HLS_": 114, "HLS_ID": 114, "NAME": "Charles A. Cannon Jr. Memorial Hospital", "ADDRESS": "434 Hospital Drive", "CITY": "Linville", "ZIP": "28605", "COUNTY": "Avery", "PHONE": "(828) 898-5111", "CANCER": "yes", "POLYGONID": 0, "SCALE": 1.0, "ANGLE": 1.0 }, "geometry": { "type": "Point", "coordinates": [ -81.870448326513809, 36.068178062695253, 0.0 ] } },
{ "type": "Feature", "properties": { "cat": 115, "OBJECTID": 115, "AREA": 0.0, "PERIMETER": 0.0, "HLS_": 115, "HLS_ID": 115, "NAME": "Chowan Hospital", "ADDRESS": "211 Virgnia Road", "CITY": "Edenton", "ZIP": "27932", "COUNTY": "Chowan", "PHONE": "(252) 482-8451", "CANCER": "yes", "POLYGONID": 0, "SCALE": 1.0, "ANGLE": 0.0 }, "geometry": { "type": "Point", "coordinates": [ -76.610648514547037, 36.07199257366721, 0.0 ] } },
{ "type": "Feature", "properties": { "cat": 116, "OBJECTID": 116, "AREA": 0.0, "PERIMETER": 0.0, "HLS_": 116, "HLS_ID": 116, "NAME": "Craven Regional Medical Center", "ADDRESS": "2000 Neuse Blvd", "CITY": "New Bern", "ZIP": "28561", "COUNTY": "Craven", "PHONE": "(252) 633-8111", "CANCER": "yes", "POLYGONID": 0, "SCALE": 1.0, "ANGLE": 1.0 }, "geometry": { "type": "Point", "coordinates": [ -77.064781605002651, 35.111170749409396, 0.0 ] } },
{ "type": "Feature", "properties": { "cat": 117, "OBJECTID": 117, "AREA": 0.0, "PERIMETER": 0.0, "HLS_": 117, "HLS_ID": 117, "NAME": "Davis Regional Medical Center", "ADDRESS": "218 Old Mocksville Rd", "CITY": "Statesville", "ZIP": "28677", "COUNTY": "Iredell", "PHONE": "(704) 873-0281", "CANCER": "yes", "POLYGONID": 0, "SCALE": 1.0, "ANGLE": 1.0 }, "geometry": { "type": "Point", "coordinates": [ -80.719183965497635, 35.911398933096564, 0.0 ] } },
{ "type": "Feature", "properties": { "cat": 118, "OBJECTID": 118, "AREA": 0.0, "PERIMETER": 0.0, "HLS_": 118, "HLS_ID": 118, "NAME": "Duke University Hospital", "ADDRESS": "Erwin Road", "CITY": "Durham", "ZIP": "27710", "COUNTY": "Durham", "PHONE": "(919) 684-8111", "CANCER": "yes", "POLYGONID": 0, "SCALE": 1.0, "ANGLE": 1.0 }, "geometry": { "type": "Point", "coordinates": [ -78.93421846211811, 36.007822396643199, 0.0 ] } },
{ "type": "Feature", "properties": { "cat": 119, "OBJECTID": 119, "AREA": 0.0, "PERIMETER": 0.0, "HLS_": 119, "HLS_ID": 119, "NAME": "FirstHealth Moore Regional Hospital", "ADDRESS": "155 Memorial Dr", "CITY": "Pinehurst", "ZIP": "28374", "COUNTY": "Moore", "PHONE": "(910) 215-1000", "CANCER": "yes", "POLYGONID": 0, "SCALE": 1.0, "ANGLE": 1.0 }, "geometry": { "type": "Point", "coordinates": [ -79.455936595177405, 35.207998511949228, 0.0 ] } },
{ "type": "Feature", "properties": { "cat": 120, "OBJECTID": 120, "AREA": 0.0, "PERIMETER": 0.0, "HLS_": 120, "HLS_ID": 120, "NAME": "Lake Norman Regional Medical Center", "ADDRESS": "171 Fairview Rd", "CITY": "Mooresville", "ZIP": "28117", "COUNTY": "Iredell", "PHONE": "(704) 663-1113", "CANCER": "yes", "POLYGONID": 0, "SCALE": 1.0, "ANGLE": 1.0 }, "geometry": { "type": "Point", "coordinates": [ -80.854083736602234, 35.547782250032505, 0.0 ] } },
{ "type": "Feature", "properties": { "cat": 121, "OBJECTID": 121, "AREA": 0.0, "PERIMETER": 0.0, "HLS_": 121, "HLS_ID": 121, "NAME": "Lexington Memorial Hospital", "ADDRESS": "250 Hospital Dr", "CITY": "Lexington", "ZIP": "27292", "COUNTY": "Davidson", "PHONE": "(336) 248-5161", "CANCER": "yes", "POLYGONID": 0, "SCALE": 1.0, "ANGLE": 1.0 }, "geometry": { "type": "Point", "coordinates": [ -80.288061873693209, 35.806534322411864, 0.0 ] } },
{ "type": "Feature", "properties": { "cat": 122, "OBJECTID": 122, "AREA": 0.0, "PERIMETER": 0.0, "HLS_": 122, "HLS_ID": 122, "NAME": "Lincoln Medical Center", "ADDRESS": "200 Gamble Dr", "CITY": "Lincolnton", "ZIP": "28092", "COUNTY": "Lincoln", "PHONE": "(704) 735-3071", "CANCER": "yes", "POLYGONID": 0, "SCALE": 1.0, "ANGLE": 1.0 }, "geometry": { "type": "Point", "coordinates": [ -81.23705512193176, 35.469501249321453, 0.0 ] } },
{ "type": "Feature", "properties": { "cat": 123, "OBJECTID": 123, "AREA": 0.0, "PERIMETER": 0.0, "HLS_": 123, "HLS_ID": 123, "NAME": "Margaret R. Pardee Memorial Hospital", "ADDRESS": "715 Fleming St", "CITY": "Hendersonville", "ZIP": "28791", "COUNTY": "Henderson", "PHONE": "(828) 696-1000", "CANCER": "yes", "POLYGONID": 0, "SCALE": 1.0, "ANGLE": 1.0 }, "geometry": { "type": "Point", "coordinates": [ -82.466160712868231, 35.320216390092455, 0.0 ] } },
{ "type": "Feature", "properties": { "cat": 124, "OBJECTID": 124, "AREA": 0.0, "PERIMETER": 0.0, "HLS_": 124, "HLS_ID": 124, "NAME": "Maria Parham Hospital", "ADDRESS": "566 Ruin Creek Rd", "CITY": "Henderson", "ZIP": "27536", "COUNTY": "Vance", "PHONE": "(252) 436-1101", "CANCER": "?", "POLYGONID": 0, "SCALE": 1.0, "ANGLE": 0.0 }, "geometry": { "type": "Point", "coordinates": [ -78.447699659366393, 36.331124225799392, 0.0 ] } },
{ "type": "Feature", "properties": { "cat": 125, "OBJECTID": 125, "AREA": 0.0, "PERIMETER": 0.0, "HLS_": 125, "HLS_ID": 125, "NAME": "Nash General Hospital", "ADDRESS": "2460 Curtis Ellis Dr", "CITY": "Rocky Mount", "ZIP": "27804", "COUNTY": "Nash", "PHONE": "(252) 443-8070", "CANCER": "yes", "POLYGONID": 0, "SCALE": 1.0, "ANGLE": 1.0 }, "geometry": { "type": "Point", "coordinates": [ -77.849578225408578, 35.973973520768425, 0.0 ] } },
{ "type": "Feature", "properties": { "cat": 126, "OBJECTID": 126, "AREA": 0.0, "PERIMETER": 0.0, "HLS_": 126, "HLS_ID": 126, "NAME": "Murphy Medical Center", "ADDRESS": "4130 US Highway 64E", "CITY": "Murphy", "ZIP": "28906", "COUNTY": "Cherokee", "PHONE": "(828) 837-8161", "CANCER": "yes", "POLYGONID": 0, "SCALE": 1.0, "ANGLE": 0.0 }, "geometry": { "type": "Point", "coordinates": [ -83.965036343156868, 35.072795914834529, 0.0 ] } },
{ "type": "Feature", "properties": { "cat": 127, "OBJECTID": 127, "AREA": 0.0, "PERIMETER": 0.0, "HLS_": 127, "HLS_ID": 127, "NAME": "New Hanover Regional Medical Center", "ADDRESS": "2131 S 17th St", "CITY": "Wilmington", "ZIP": "28401", "COUNTY": "New Hanover", "PHONE": "(910) 343-7040", "CANCER": "yes", "POLYGONID": 0, "SCALE": 1.0, "ANGLE": 1.0 }, "geometry": { "type": "Point", "coordinates": [ -77.924590831424936, 34.206774143992128, 0.0 ] } },
{ "type": "Feature", "properties": { "cat": 128, "OBJECTID": 128, "AREA": 0.0, "PERIMETER": 0.0, "HLS_": 128, "HLS_ID": 128, "NAME": "NextCARE Specialty Hospital", "ADDRESS": "1031 Noell Ln", "CITY": "Rocky Mount", "ZIP": "27804", "COUNTY": "Nash", "PHONE": "(252) 451-2300", "CANCER": "?", "POLYGONID": 0, "SCALE": 1.0, "ANGLE": 0.0 }, "geometry": { "type": "Point", "coordinates": [ -77.81997247966676, 35.975103042237848, 0.0 ] } },
{ "type": "Feature", "properties": { "cat": 129, "OBJECTID": 129, "AREA": 0.0, "PERIMETER": 0.0, "HLS_": 129, "HLS_ID": 129, "NAME": "North Carolina Specialty Hospital", "ADDRESS": "1110 W Main St", "CITY": "Durham", "ZIP": "27701", "COUNTY": "Durham", "PHONE": "(919) 682-9341", "CANCER": "no", "POLYGONID": 0, "SCALE": 1.0, "ANGLE": 1.0 }, "geometry": { "type": "Point", "coordinates": [ -78.911136975369359, 36.000981943714926, 0.0 ] } },
{ "type": "Feature", "properties": { "cat": 130, "OBJECTID": 130, "AREA": 0.0, "PERIMETER": 0.0, "HLS_": 130, "HLS_ID": 130, "NAME": "Northern Hospital of Surry County", "ADDRESS": "830 Rockford St", "CITY": "Mount Airy", "ZIP": "27030", "COUNTY": "Surry", "PHONE": "(336) 719-7100", "CANCER": "yes", "POLYGONID": 0, "SCALE": 1.0, "ANGLE": 1.0 }, "geometry": { "type": "Point", "coordinates": [ -80.609949849996113, 36.494019316699735, 0.0 ] } },
{ "type": "Feature", "properties": { "cat": 131, "OBJECTID": 131, "AREA": 0.0, "PERIMETER": 0.0, "HLS_": 131, "HLS_ID": 131, "NAME": "Our Community Hospital", "ADDRESS": "921 Junior High Rd", "CITY": "Scotland Neck", "ZIP": "27874", "COUNTY": "Halifax", "PHONE": "(252) 826-4144", "CANCER": "?", "POLYGONID": 0, "SCALE": 1.0, "ANGLE": 0.0 }, "geometry": { "type": "Point", "coordinates": [ -77.421471218580933, 36.134294826853086, 0.0 ] } },
{ "type": "Feature", "properties": { "cat": 132, "OBJECTID": 132, "AREA": 0.0, "PERIMETER": 0.0, "HLS_": 132, "HLS_ID": 132, "NAME": "Alleghany Memorial Hospital", "ADDRESS": "233 Doctors St", "CITY": "Sparta", "ZIP": "28675", "COUNTY": "Alleghany", "PHONE": "(336) 372-5511", "CANCER": "yes", "POLYGONID": 0, "SCALE": 1.0, "ANGLE": 1.0 }, "geometry": { "type": "Point", "coordinates": [ -81.114476241300594, 36.508978278995187, 0.0 ] } },
{ "type": "Feature", "properties": { "cat": 133, "OBJECTID": 133, "AREA": 0.0, "PERIMETER": 0.0, "HLS_": 133, "HLS_ID": 133, "NAME": "Pitt County Memorial Hospital", "ADDRESS": "2100 Stantonsburg Rd", "CITY": "Greenville", "ZIP": "27834", "COUNTY": "Pitt", "PHONE": "(252) 816-4100", "CANCER": "yes", "POLYGONID": 0, "SCALE": 1.0, "ANGLE": 0.0 }, "geometry": { "type": "Point", "coordinates": [ -77.435885003195878, 35.602471604729594, 0.0 ] } },
{ "type": "Feature", "properties": { "cat": 134, "OBJECTID": 134, "AREA": 0.0, "PERIMETER": 0.0, "HLS_": 134, "HLS_ID": 134, "NAME": "Roanoke-Chowan Hospital", "ADDRESS": "500 S. Academy St", "CITY": "Ahoskie", "ZIP": "27910", "COUNTY": "Hertford", "PHONE": "(252) 209-3000", "CANCER": "?", "POLYGONID": 0, "SCALE": 1.0, "ANGLE": 0.0 }, "geometry": { "type": "Point", "coordinates": [ -76.994438025616873, 36.28470928366071, 0.0 ] } },
{ "type": "Feature", "properties": { "cat": 135, "OBJECTID": 135, "AREA": 0.0, "PERIMETER": 0.0, "HLS_": 135, "HLS_ID": 135, "NAME": "Sandhills Regional Medical Center", "ADDRESS": "1000 W Hamlet Ave", "CITY": "Hamlet", "ZIP": "28345", "COUNTY": "Richmond", "PHONE": "(910) 205-8000", "CANCER": "yes", "POLYGONID": 0, "SCALE": 1.0, "ANGLE": 0.0 }, "geometry": { "type": "Point", "coordinates": [ -79.703408482005912, 34.895976610259595, 0.0 ] } },
{ "type": "Feature", "properties": { "cat": 136, "OBJECTID": 136, "AREA": 0.0, "PERIMETER": 0.0, "HLS_": 136, "HLS_ID": 136, "NAME": "Southeastern Regional Medical Center", "ADDRESS": "300 West 27th St", "CITY": "Lumberton", "ZIP": "28358", "COUNTY": "Robeson", "PHONE": "(910) 671-5000", "CANCER": "yes", "POLYGONID": 0, "SCALE": 1.0, "ANGLE": 1.0 }, "geometry": { "type": "Point", "coordinates": [ -79.010563165489216, 34.636404289090223, 0.0 ] } },
{ "type": "Feature", "properties": { "cat": 137, "OBJECTID": 137, "AREA": 0.0, "PERIMETER": 0.0, "HLS_": 137, "HLS_ID": 137, "NAME": "St Luke's Hospital", "ADDRESS": "220 Hospital Dr", "CITY": "Columbus", "ZIP": "28722", "COUNTY": "Polk", "PHONE": "(828) 894-3311", "CANCER": "yes", "POLYGONID": 0, "SCALE": 1.0, "ANGLE": 0.0 }, "geometry": { "type": "Point", "coordinates": [ -82.199513809841548, 35.242288823567698, 0.0 ] } },
{ "type": "Feature", "properties": { "cat": 138, "OBJECTID": 138, "AREA": 0.0, "PERIMETER": 0.0, "HLS_": 138, "HLS_ID": 138, "NAME": "Stokes Reynolds Memorial Hospital", "ADDRESS": "89 Highway 8 N", "CITY": "Danbury", "ZIP": "27016", "COUNTY": "Stokes", "PHONE": "(336) 593-2831", "CANCER": "yes", "POLYGONID": 0, "SCALE": 1.0, "ANGLE": 0.0 }, "geometry": { "type": "Point", "coordinates": [ -80.228551908583881, 36.417337126350979, 0.0 ] } },
{ "type": "Feature", "properties": { "cat": 139, "OBJECTID": 139, "AREA": 0.0, "PERIMETER": 0.0, "HLS_": 139, "HLS_ID": 139, "NAME": "Taylor Hospital and Extended Care Facility", "ADDRESS": "468 Highway 70 E", "CITY": "Sealevel", "ZIP": "28577", "COUNTY": "Carteret", "PHONE": "(252) 225-4611", "CANCER": "no", "POLYGONID": 0, "SCALE": 1.0, "ANGLE": 0.0 }, "geometry": { "type": "Point", "coordinates": [ -76.391118431558709, 34.881436943481042, 0.0 ] } },
{ "type": "Feature", "properties": { "cat": 140, "OBJECTID": 140, "AREA": 0.0, "PERIMETER": 0.0, "HLS_": 140, "HLS_ID": 140, "NAME": "Eastern Carteret Medical Center", "ADDRESS": "458 Highway 70 E", "CITY": "Sealevel", "ZIP": "28577", "COUNTY": "Carteret", "PHONE": "(252) 225-1134", "CANCER": "no", "POLYGONID": 0, "SCALE": 1.0, "ANGLE": 0.0 }, "geometry": { "type": "Point", "coordinates": [ -76.390148866782766, 34.878576555570412, 0.0 ] } },
{ "type": "Feature", "properties": { "cat": 141, "OBJECTID": 141, "AREA": 0.0, "PERIMETER": 0.0, "HLS_": 141, "HLS_ID": 141, "NAME": "The McDowell Hospital", "ADDRESS": "430 Rankin Dr", "CITY": "Marion", "ZIP": "28752", "COUNTY": "McDowell", "PHONE": "(828) 659-5000", "CANCER": "yes", "POLYGONID": 0, "SCALE": 1.0, "ANGLE": 1.0 }, "geometry": { "type": "Point", "coordinates": [ -82.024250405818989, 35.663574529152335, 0.0 ] } },
{ "type": "Feature", "properties": { "cat": 142, "OBJECTID": 142, "AREA": 0.0, "PERIMETER": 0.0, "HLS_": 142, "HLS_ID": 142, "NAME": "The Women's Hospital Of Greensboro", "ADDRESS": "801 Green Valley Rd", "CITY": "Greensboro", "ZIP": "27408", "COUNTY": "Guilford", "PHONE": "(336) 574-6500", "CANCER": "no", "POLYGONID": 0, "SCALE": 1.0, "ANGLE": 1.0 }, "geometry": { "type": "Point", "coordinates": [ -79.82067816227628, 36.09122745403085, 0.0 ] } },
{ "type": "Feature", "properties": { "cat": 143, "OBJECTID": 143, "AREA": 0.0, "PERIMETER": 0.0, "HLS_": 143, "HLS_ID": 143, "NAME": "Union Regional Medical Center", "ADDRESS": "600 Hospital Dr", "CITY": "Monroe", "ZIP": "28112", "COUNTY": "Union", "PHONE": "(704) 283-3100", "CANCER": "?", "POLYGONID": 0, "SCALE": 1.0, "ANGLE": 0.0 }, "geometry": { "type": "Point", "coordinates": [ -80.523097452136554, 34.975654526260534, 0.0 ] } },
{ "type": "Feature", "properties": { "cat": 144, "OBJECTID": 144, "AREA": 0.0, "PERIMETER": 0.0, "HLS_": 144, "HLS_ID": 144, "NAME": "University Hospital", "ADDRESS": "8800 N Tryon St", "CITY": "Charlotte", "ZIP": "28262", "COUNTY": "Mecklenburg", "PHONE": "(704) 548-6000", "CANCER": "yes", "POLYGONID": 0, "SCALE": 1.0, "ANGLE": 0.0 }, "geometry": { "type": "Point", "coordinates": [ -80.737757671733746, 35.318004118459577, 0.0 ] } },
{ "type": "Feature", "properties": { "cat": 145, "OBJECTID": 145, "AREA": 0.0, "PERIMETER": 0.0, "HLS_": 145, "HLS_ID": 145, "NAME": "Washington County Hospital", "ADDRESS": "958 US Hwy 64 East", "CITY": "Plymouth", "ZIP": "27962", "COUNTY": "Washington", "PHONE": "(252) 793-4135", "CANCER": "?", "POLYGONID": 0, "SCALE": 1.0, "ANGLE": 0.0 }, "geometry": { "type": "Point", "coordinates": [ -76.73028888751449, 35.863602155200773, 0.0 ] } },
{ "type": "Feature", "properties": { "cat": 146, "OBJECTID": 146, "AREA": 0.0, "PERIMETER": 0.0, "HLS_": 146, "HLS_ID": 146, "NAME": "Western Wake Medical Center", "ADDRESS": "1900 Kildaire Farm Rd", "CITY": "Cary", "ZIP": "27511", "COUNTY": "Wake", "PHONE": "(919) 233-2300", "CANCER": "yes", "POLYGONID": 0, "SCALE": 1.0, "ANGLE": 1.0 }, "geometry": { "type": "Point", "coordinates": [ -78.780752210564941, 35.74237438244382, 0.0 ] } },
{ "type": "Feature", "properties": { "cat": 147, "OBJECTID": 147, "AREA": 0.0, "PERIMETER": 0.0, "HLS_": 147, "HLS_ID": 147, "NAME": "Wilkes Regional Medical Center", "ADDRESS": "1370 W D St", "CITY": "North Wilkesboro", "ZIP": "28659", "COUNTY": "Wilkes", "PHONE": "(336) 651-8100", "CANCER": "yes", "POLYGONID": 0, "SCALE": 1.0, "ANGLE": 1.0 }, "geometry": { "type": "Point", "coordinates": [ -81.162505671163572, 36.156493067572903, 0.0 ] } },
{ "type": "Feature", "properties": { "cat": 148, "OBJECTID": 148, "AREA": 0.0, "PERIMETER": 0.0, "HLS_": 148, "HLS_ID": 148, "NAME": "Wilson Memorial Hospital", "ADDRESS": "1705 S Tarboro St Sw", "CITY": "Wilson", "ZIP": "27893", "COUNTY": "Wilson", "PHONE": "(252) 399-8040", "CANCER": "yes", "POLYGONID": 0, "SCALE": 1.0, "ANGLE": 1.0 }, "geometry": { "type": "Point", "coordinates": [ -77.943982420016965, 35.720576746579781, 0.0 ] } },
{ "type": "Feature", "properties": { "cat": 149, "OBJECTID": 149, "AREA": 0.0, "PERIMETER": 0.0, "HLS_": 149, "HLS_ID": 149, "NAME": "Yancey Community Medical Center", "ADDRESS": "320 Pensacola Rd", "CITY": "Burnsville", "ZIP": "28714", "COUNTY": "Yancey", "PHONE": "(828) 682-6136", "CANCER": "?", "POLYGONID": 0, "SCALE": 1.0, "ANGLE": 0.0 }, "geometry": { "type": "Point", "coordinates": [ -82.29072480454704, 35.91075627926643, 0.0 ] } },
{ "type": "Feature", "properties": { "cat": 150, "OBJECTID": 150, "AREA": 0.0, "PERIMETER": 0.0, "HLS_": 150, "HLS_ID": 150, "NAME": "Brynn Marr Hospital", "ADDRESS": "192 Village Dr", "CITY": "Jacksonville", "ZIP": "28546", "COUNTY": "Onslow", "PHONE": "(910) 577-1400", "CANCER": "no", "POLYGONID": 0, "SCALE": 1.0, "ANGLE": 1.0 }, "geometry": { "type": "Point", "coordinates": [ -77.373911888537876, 34.746629183998031, 0.0 ] } },
{ "type": "Feature", "properties": { "cat": 151, "OBJECTID": 151, "AREA": 0.0, "PERIMETER": 0.0, "HLS_": 151, "HLS_ID": 151, "NAME": "Caswell Center", "ADDRESS": "2415 W Vernon Ave", "CITY": "Kinston", "ZIP": "28501", "COUNTY": "Lenoir", "PHONE": "(252) 559-5100", "CANCER": "yes", "POLYGONID": 0, "SCALE": 1.0, "ANGLE": 0.0 }, "geometry": { "type": "Point", "coordinates": [ -77.618038368738468, 35.268763604860816, 0.0 ] } },
{ "type": "Feature", "properties": { "cat": 152, "OBJECTID": 152, "AREA": 0.0, "PERIMETER": 0.0, "HLS_": 152, "HLS_ID": 152, "NAME": "Mountain Area Cancer Center", "ADDRESS": "50 Doctors Dr # 417", "CITY": "Asheville", "ZIP": "28801", "COUNTY": "Buncombe", "PHONE": "(828) 253-0969", "CANCER": "no", "POLYGONID": 0, "SCALE": 1.0, "ANGLE": 1.0 }, "geometry": { "type": "Point", "coordinates": [ -82.550187764304837, 35.57407404991099, 0.0 ] } },
{ "type": "Feature", "properties": { "cat": 153, "OBJECTID": 153, "AREA": 0.0, "PERIMETER": 0.0, "HLS_": 153, "HLS_ID": 153, "NAME": "US Army Hospital", "ADDRESS": "1330 Westover St", "CITY": "Charlotte", "ZIP": "28205", "COUNTY": "Mecklenburg", "PHONE": "(704) 342-5166", "CANCER": "no", "POLYGONID": 0, "SCALE": 1.0, "ANGLE": 1.0 }, "geometry": { "type": "Point", "coordinates": [ -80.806944378737654, 35.217728084441262, 0.0 ] } },
{ "type": "Feature", "properties": { "cat": 154, "OBJECTID": 154, "AREA": 0.0, "PERIMETER": 0.0, "HLS_": 154, "HLS_ID": 154, "NAME": "US Army Reserve Hospital", "ADDRESS": "7838 McCloud Rd", "CITY": "Greensboro", "ZIP": "27409", "COUNTY": "Guilford", "PHONE": "(336) 605-2910", "CANCER": "no", "POLYGONID": 0, "SCALE": 1.0, "ANGLE": 1.0 }, "geometry": { "type": "Point", "coordinates": [ -79.97657808639471, 36.086138167469045, 0.0 ] } },
{ "type": "Feature", "properties": { "cat": 155, "OBJECTID": 155, "AREA": 0.0, "PERIMETER": 0.0, "HLS_": 155, "HLS_ID": 155, "NAME": "Womack Army Medical Center", "ADDRESS": "MSXC -SU", "CITY": "Fort Bragg", "ZIP": "28307", "COUNTY": "Cumberland", "PHONE": "(910) 432-3719", "CANCER": "yes", "POLYGONID": 0, "SCALE": 1.0, "ANGLE": 0.0 }, "geometry": { "type": "Point", "coordinates": [ -78.996636626662365, 35.141594248717965, 0.0 ] } },
{ "type": "Feature", "properties": { "cat": 156, "OBJECTID": 156, "AREA": 0.0, "PERIMETER": 0.0, "HLS_": 156, "HLS_ID": 156, "NAME": "Anson Community Hospital", "ADDRESS": "500 Morven Rd", "CITY": "Wadesboro", "ZIP": "28170", "COUNTY": "Anson", "PHONE": "(704) 694-5131", "CANCER": "yes", "POLYGONID": 0, "SCALE": 1.0, "ANGLE": 1.0 }, "geometry": { "type": "Point", "coordinates": [ -80.075222067292941, 34.960522921581919, 0.0 ] } },
{ "type": "Feature", "properties": { "cat": 157, "OBJECTID": 157, "AREA": 0.0, "PERIMETER": 0.0, "HLS_": 157, "HLS_ID": 157, "NAME": "Betsy Johnson Regional Hospital", "ADDRESS": "800 Tilghman Dr", "CITY": "Dunn", "ZIP": "28335", "COUNTY": "Harnett", "PHONE": "(910) 892-7161", "CANCER": "yes", "POLYGONID": 0, "SCALE": 1.0, "ANGLE": 1.0 }, "geometry": { "type": "Point", "coordinates": [ -78.633254808691902, 35.307323655440371, 0.0 ] } },
{ "type": "Feature", "properties": { "cat": 158, "OBJECTID": 158, "AREA": 0.0, "PERIMETER": 0.0, "HLS_": 158, "HLS_ID": 158, "NAME": "Blowing Rock Hospital", "ADDRESS": "418 Chestnut Cir", "CITY": "Blowing Rock", "ZIP": "28605", "COUNTY": "Watauga", "PHONE": "(828) 295-3136", "CANCER": "yes", "POLYGONID": 0, "SCALE": 1.0, "ANGLE": 1.0 }, "geometry": { "type": "Point", "coordinates": [ -81.678066464468785, 36.127250201213428, 0.0 ] } },
{ "type": "Feature", "properties": { "cat": 159, "OBJECTID": 159, "AREA": 0.0, "PERIMETER": 0.0, "HLS_": 159, "HLS_ID": 159, "NAME": "Cape Fear Hospital", "ADDRESS": "5301 Wrightsville Ave", "CITY": "Wilmington", "ZIP": "28403", "COUNTY": "New Hanover", "PHONE": "(910) 452-8100", "CANCER": "yes", "POLYGONID": 0, "SCALE": 1.0, "ANGLE": 1.0 }, "geometry": { "type": "Point", "coordinates": [ -77.854133004612905, 34.213172458618303, 0.0 ] } },
{ "type": "Feature", "properties": { "cat": 160, "OBJECTID": 160, "AREA": 0.0, "PERIMETER": 0.0, "HLS_": 160, "HLS_ID": 160, "NAME": "The Outer Banks Hospital (license pending)", "ADDRESS": "4800 S Croatan Hwy", "CITY": "Nags Head", "ZIP": "27959", "COUNTY": "Dare", "PHONE": null, "CANCER": "?", "POLYGONID": 0, "SCALE": 1.0, "ANGLE": 0.0 }, "geometry": { "type": "Point", "coordinates": [ -75.621432563849851, 35.94855470182344, 0.0 ] } }
]
}
